[
	{"name":"烟感一号","station":"站点一","person":"张三","state":"正常","lng":"115.998412","lat":"29.555904"},
	{"name":"烟感二号","station":"站点三","person":"李四","state":"正常","lng":"116.018534","lat":"29.567842"},
	{"name":"烟感三号","station":"站点一","person":"王二","state":"故障","lng":"116.047998","lat":"29.554961"},
	{"name":"烟感四号","station":"站点二","person":"麻子","state":"正常","lng":"116.036644","lat":"29.572931"},
	{"name":"烟感五号","station":"站点二","person":"张三","state":"正常","lng":"115.980374","lat":"29.564575"},
	{"name":"烟感六号","station":"站点一","person":"李四","state":"正常","lng":"116.0001","lat":"29.563507"},
	{"name":"烟感七号","station":"站点三","person":"王二","state":"故障","lng":"115.954143","lat":"29.560365"},
	{"name":"烟感八号","station":"站点一","person":"张三","state":"正常","lng":"115.950227","lat":"29.545096"},
	{"name":"烟感九号","station":"站点三","person":"李四","state":"正常","lng":"115.938728","lat":"29.542708"},
	{"name":"烟感十号","station":"站点二","person":"麻子","state":"正常","lng":"115.978865","lat":"29.544153"},
	{"name":"烟感十一号","station":"站点三","person":"王二","state":"故障","lng":"115.990841","lat":"29.574436"},
	{"name":"烟感十二号","station":"站点二","person":"李四","state":"正常","lng":"115.975918","lat":"29.566617"},
	{"name":"烟感十三号","station":"站点一","person":"张三","state":"正常","lng":"116.000316","lat":"29.571706"},
	{"name":"烟感十四号","station":"站点三","person":"麻子","state":"正常","lng":"115.993992","lat":"29.586406"}
]